{
  "source": "서울교통정보센터",
  "description": "사용자가 제공한 서울 CCTV 목록 HTML을 기준으로 파싱한 정적 샘플 데이터",
  "items": [
    {
      "name": "2,3호터널",
      "longitude": 126.98853882157705,
      "latitude": 37.54324759275993,
      "cctvId": "L010001"
    },
    {
      "name": "3기동단 4거리",
      "longitude": 127.1184983,
      "latitude": 37.480437155,
      "cctvId": "L010002"
    },
    {
      "name": "63빌딩",
      "longitude": 126.94014,
      "latitude": 37.51961,
      "cctvId": "L010003"
    },
    {
      "name": "AT센터",
      "longitude": 127.03887,
      "latitude": 37.469765,
      "cctvId": "L010004"
    },
    {
      "name": "가락시장",
      "longitude": 127.11389,
      "latitude": 37.49733,
      "cctvId": "L010005"
    },
    {
      "name": "가락시장역",
      "longitude": 127.11895,
      "latitude": 37.49284,
      "cctvId": "L010006"
    },
    {
      "name": "가양대교 남단",
      "longitude": 126.86498,
      "latitude": 37.56182,
      "cctvId": "L010502"
    },
    {
      "name": "가양대교~난지IC",
      "longitude": 126.88038,
      "latitude": 37.56626,
      "cctvId": "L010503"
    },
    {
      "name": "강남세브란스",
      "longitude": 127.0471,
      "latitude": 37.49404,
      "cctvId": "L010008"
    },
    {
      "name": "강남역",
      "longitude": 127.02783,
      "latitude": 37.49823,
      "cctvId": "L010009"
    },
    {
      "name": "강남터미널",
      "longitude": 127.00893,
      "latitude": 37.5072,
      "cctvId": "L010010"
    },
    {
      "name": "강서구청",
      "longitude": 126.85266,
      "latitude": 37.55606,
      "cctvId": "L010011"
    },
    {
      "name": "강일IC",
      "longitude": 127.16602,
      "latitude": 37.57415,
      "cctvId": "L010012"
    },
    {
      "name": "개화교",
      "longitude": 126.79676,
      "latitude": 37.58481,
      "cctvId": "L010013"
    },
    {
      "name": "개화사거리",
      "longitude": 126.803709,
      "latitude": 37.572497,
      "cctvId": "L010014"
    },
    {
      "name": "거리공원오거리",
      "longitude": 126.89282,
      "latitude": 37.49751,
      "cctvId": "L010035"
    },
    {
      "name": "경기고",
      "longitude": 127.0573,
      "latitude": 37.52034,
      "cctvId": "L010016"
    },
    {
      "name": "경남아파트",
      "longitude": 127.00186,
      "latitude": 37.47492,
      "cctvId": "L010018"
    },
    {
      "name": "경동시장R",
      "longitude": 127.03847,
      "latitude": 37.57803,
      "cctvId": "L010353"
    },
    {
      "name": "경복궁역",
      "longitude": 126.972,
      "latitude": 37.576,
      "cctvId": "L010020"
    },
    {
      "name": "경복아파트",
      "longitude": 127.038652841,
      "latitude": 37.508660235,
      "cctvId": "L010021"
    },
    {
      "name": "경인2지하차도",
      "longitude": 126.86367,
      "latitude": 37.53001,
      "cctvId": "L010022"
    },
    {
      "name": "고려대",
      "longitude": 127.03317,
      "latitude": 37.58659,
      "cctvId": "L010023"
    },
    {
      "name": "고려대앞삼거리",
      "longitude": 127.03727,
      "latitude": 37.58823,
      "cctvId": "L010505"
    },
    {
      "name": "고려대역",
      "longitude": 127.03619,
      "latitude": 37.58991,
      "cctvId": "L010024"
    },
    {
      "name": "고척교",
      "longitude": 126.87136,
      "latitude": 37.49873,
      "cctvId": "L010025"
    },
    {
      "name": "공덕오거리",
      "longitude": 126.95112,
      "latitude": 37.54366,
      "cctvId": "L010026"
    },
    {
      "name": "광산 4거리",
      "longitude": 127.02217977024,
      "latitude": 37.6433721622,
      "cctvId": "L010027"
    },
    {
      "name": "광장사거리",
      "longitude": 127.10477,
      "latitude": 37.54531,
      "cctvId": "L010028"
    },
    {
      "name": "광화문",
      "longitude": 126.97847,
      "latitude": 37.57554,
      "cctvId": "L010029"
    },
    {
      "name": "광화문광장",
      "longitude": 126.97739,
      "latitude": 37.57261,
      "cctvId": "L010030"
    },
    {
      "name": "광흥창역",
      "longitude": 126.93149,
      "latitude": 37.54779,
      "cctvId": "L010031"
    },
    {
      "name": "교보타워R",
      "longitude": 127.0243,
      "latitude": 37.50407,
      "cctvId": "L010032"
    },
    {
      "name": "교육개발원입구",
      "longitude": 127.039,
      "latitude": 37.47787,
      "cctvId": "L010033"
    },
    {
      "name": "구로IC",
      "longitude": 126.87874,
      "latitude": 37.48648,
      "cctvId": "L010034"
    },
    {
      "name": "구로역",
      "longitude": 126.88022,
      "latitude": 37.50305,
      "cctvId": "L010036"
    },
    {
      "name": "구룡4거리(시계)",
      "longitude": 126.875748366,
      "latitude": 37.58017542,
      "cctvId": "L010037"
    },
    {
      "name": "구룡터널",
      "longitude": 127.0593,
      "latitude": 37.4759,
      "cctvId": "L010038"
    },
    {
      "name": "구반포R",
      "longitude": 126.98654,
      "latitude": 37.5014,
      "cctvId": "L010039"
    },
    {
      "name": "구의사거리",
      "longitude": 127.08527,
      "latitude": 37.54525,
      "cctvId": "L010040"
    },
    {
      "name": "구파발",
      "longitude": 126.91653,
      "latitude": 37.63891,
      "cctvId": "L010041"
    },
    {
      "name": "국립4.19묘지입구",
      "longitude": 127.01444,
      "latitude": 37.6483,
      "cctvId": "L010042"
    },
    {
      "name": "국립국악원",
      "longitude": 127.00829,
      "latitude": 37.47864,
      "cctvId": "L010043"
    },
    {
      "name": "국립현충원",
      "longitude": 126.97564,
      "latitude": 37.50423,
      "cctvId": "L010044"
    },
    {
      "name": "국회",
      "longitude": 126.91664,
      "latitude": 37.52858,
      "cctvId": "L010045"
    },
    {
      "name": "국회대로 여의 방향 진입",
      "longitude": 126.920617342,
      "latitude": 37.523467024,
      "cctvId": "L010046"
    },
    {
      "name": "국회도서관",
      "longitude": 126.91926,
      "latitude": 37.53008,
      "cctvId": "L010047"
    },
    {
      "name": "군자교",
      "longitude": 127.07337,
      "latitude": 37.55982,
      "cctvId": "L010048"
    },
    {
      "name": "군자교(동북측)",
      "longitude": 127.07364,
      "latitude": 37.56088,
      "cctvId": "L010510"
    },
    {
      "name": "굽은다리역",
      "longitude": 127.1435,
      "latitude": 37.54653,
      "cctvId": "L010049"
    },
    {
      "name": "금천구청 3거리",
      "longitude": 126.89926869604,
      "latitude": 37.45756234,
      "cctvId": "L010050"
    },
    {
      "name": "길동사거리",
      "longitude": 127.13829,
      "latitude": 37.5338,
      "cctvId": "L010051"
    },
    {
      "name": "길음",
      "longitude": 127.0223,
      "latitude": 37.60151,
      "cctvId": "L010052"
    },
    {
      "name": "길음역",
      "longitude": 127.02525693,
      "latitude": 37.6041617,
      "cctvId": "L010053"
    },
    {
      "name": "김포공항입구",
      "longitude": 126.80677,
      "latitude": 37.56205,
      "cctvId": "L010054"
    },
    {
      "name": "까치고개",
      "longitude": 126.96763,
      "latitude": 37.47533,
      "cctvId": "L010055"
    },
    {
      "name": "남대문",
      "longitude": 126.97482,
      "latitude": 37.56096,
      "cctvId": "L010056"
    },
    {
      "name": "남태령고개",
      "longitude": 126.98883,
      "latitude": 37.45821,
      "cctvId": "L010057"
    },
    {
      "name": "내곡IC",
      "longitude": 127.07541,
      "latitude": 37.4586,
      "cctvId": "L010058"
    },
    {
      "name": "노량진삼거리",
      "longitude": 126.94042,
      "latitude": 37.51338,
      "cctvId": "L010059"
    },
    {
      "name": "노원 롯데",
      "longitude": 127.060205576,
      "latitude": 37.65403441,
      "cctvId": "L010060"
    },
    {
      "name": "녹번3R",
      "longitude": 126.93587,
      "latitude": 37.60025,
      "cctvId": "L010061"
    },
    {
      "name": "녹사평역",
      "longitude": 126.98769,
      "latitude": 37.53396,
      "cctvId": "L010062"
    },
    {
      "name": "녹천교~창동교",
      "longitude": 127.05565,
      "latitude": 37.6502,
      "cctvId": "L010514"
    },
    {
      "name": "논현역",
      "longitude": 127.02115,
      "latitude": 37.51083,
      "cctvId": "L010063"
    },
    {
      "name": "능산사거리",
      "longitude": 127.101098646,
      "latitude": 37.608439101,
      "cctvId": "L010064"
    },
    {
      "name": "당곡사거리",
      "longitude": 126.9284,
      "latitude": 37.48889,
      "cctvId": "L010065"
    },
    {
      "name": "대공원후문",
      "longitude": 127.08884,
      "latitude": 37.55354,
      "cctvId": "L010066"
    },
    {
      "name": "대림삼거리",
      "longitude": 126.90919,
      "latitude": 37.49268,
      "cctvId": "L010067"
    },
    {
      "name": "대신R",
      "longitude": 126.94074,
      "latitude": 37.56071,
      "cctvId": "L010068"
    },
    {
      "name": "대진고교",
      "longitude": 127.07531,
      "latitude": 37.63896,
      "cctvId": "L010069"
    },
    {
      "name": "대치사거리",
      "longitude": 127.0588,
      "latitude": 37.50326,
      "cctvId": "L010070"
    },
    {
      "name": "대학로",
      "longitude": 127.00177,
      "latitude": 37.58183,
      "cctvId": "L010071"
    },
    {
      "name": "도봉검문소",
      "longitude": 127.04472,
      "latitude": 37.69283,
      "cctvId": "L010072"
    },
    {
      "name": "도산공원",
      "longitude": 127.03397,
      "latitude": 37.52178,
      "cctvId": "L010073"
    },
    {
      "name": "도선사거리",
      "longitude": 127.036425,
      "latitude": 37.566089,
      "cctvId": "L010074"
    },
    {
      "name": "도시철도공사",
      "longitude": 127.05813,
      "latitude": 37.56252,
      "cctvId": "L010075"
    },
    {
      "name": "독립문",
      "longitude": 126.96037,
      "latitude": 37.57242,
      "cctvId": "L010076"
    },
    {
      "name": "동1로지하차도",
      "longitude": 127.08007,
      "latitude": 37.59475,
      "cctvId": "L010077"
    },
    {
      "name": "동교동삼거리",
      "longitude": 126.92653,
      "latitude": 37.55898,
      "cctvId": "L010078"
    },
    {
      "name": "동대문구청",
      "longitude": 127.03811762173,
      "latitude": 37.5737475,
      "cctvId": "L010079"
    },
    {
      "name": "동대문운동장",
      "longitude": 127.00757,
      "latitude": 37.5662,
      "cctvId": "L010080"
    },
    {
      "name": "동묘앞역",
      "longitude": 127.01554,
      "latitude": 37.57283,
      "cctvId": "L010081"
    },
    {
      "name": "동작대교 북단",
      "longitude": 126.97966,
      "latitude": 37.51628,
      "cctvId": "L010517"
    },
    {
      "name": "동호대교남단",
      "longitude": 127.02372,
      "latitude": 37.5315,
      "cctvId": "L010082"
    },
    {
      "name": "둔촌사거리",
      "longitude": 127.13402,
      "latitude": 37.52096,
      "cctvId": "L010083"
    },
    {
      "name": "등촌삼거리",
      "longitude": 126.86404,
      "latitude": 37.5512,
      "cctvId": "L010377"
    },
    {
      "name": "디지털단지",
      "longitude": 126.89039,
      "latitude": 37.47909,
      "cctvId": "L010085"
    },
    {
      "name": "떡전교",
      "longitude": 127.05176,
      "latitude": 37.5857,
      "cctvId": "L010086"
    },
    {
      "name": "르네상스",
      "longitude": 127.04292,
      "latitude": 37.50298,
      "cctvId": "L010087"
    },
    {
      "name": "마포~원효중간",
      "longitude": 126.948,
      "latitude": 37.53335,
      "cctvId": "L010524"
    },
    {
      "name": "마포대교남단",
      "longitude": 126.92986,
      "latitude": 37.5287,
      "cctvId": "L010088"
    },
    {
      "name": "말미R",
      "longitude": 126.89802,
      "latitude": 37.46639,
      "cctvId": "L010089"
    },
    {
      "name": "망우사거리",
      "longitude": 127.10025,
      "latitude": 37.59957,
      "cctvId": "L010090"
    },
    {
      "name": "매봉터널",
      "longitude": 127.04961,
      "latitude": 37.48853,
      "cctvId": "L010091"
    },
    {
      "name": "먹골역",
      "longitude": 127.078665,
      "latitude": 37.607178,
      "cctvId": "L010610"
    },
    {
      "name": "명동역",
      "longitude": 126.98462,
      "latitude": 37.56062,
      "cctvId": "L010092"
    },
    {
      "name": "명동입구",
      "longitude": 126.98173,
      "latitude": 37.56345,
      "cctvId": "L010380"
    },
    {
      "name": "명일E마트",
      "longitude": 127.15634,
      "latitude": 37.5555,
      "cctvId": "L010094"
    },
    {
      "name": "목동교",
      "longitude": 126.89031,
      "latitude": 37.53069,
      "cctvId": "L010095"
    },
    {
      "name": "목동오거리",
      "longitude": 126.86452,
      "latitude": 37.52645,
      "cctvId": "L010096"
    },
    {
      "name": "문래고가밑",
      "longitude": 126.89691,
      "latitude": 37.5132,
      "cctvId": "L010098"
    },
    {
      "name": "미아사거리",
      "longitude": 127.03028,
      "latitude": 37.60881,
      "cctvId": "L010099"
    },
    {
      "name": "박미고개",
      "longitude": 126.90376,
      "latitude": 37.44716,
      "cctvId": "L010100"
    },
    {
      "name": "박석고개R",
      "longitude": 126.92004,
      "latitude": 37.62702,
      "cctvId": "L010101"
    },
    {
      "name": "반포IC",
      "longitude": 127.01838,
      "latitude": 37.50279,
      "cctvId": "L010102"
    },
    {
      "name": "반포대교남단",
      "longitude": 126.99865,
      "latitude": 37.50957,
      "cctvId": "L010103"
    },
    {
      "name": "발산역",
      "longitude": 126.83817,
      "latitude": 37.55877,
      "cctvId": "L010104"
    },
    {
      "name": "방학사거리",
      "longitude": 127.04263,
      "latitude": 37.66267,
      "cctvId": "L010105"
    },
    {
      "name": "방학신동아",
      "longitude": 127.02746,
      "latitude": 37.66166,
      "cctvId": "L010106"
    },
    {
      "name": "방화대교남단",
      "longitude": 126.82025,
      "latitude": 37.58388,
      "cctvId": "L010107"
    },
    {
      "name": "배봉초교",
      "longitude": 127.06861,
      "latitude": 37.57882,
      "cctvId": "L010108"
    },
    {
      "name": "번동사거리",
      "longitude": 127.03423,
      "latitude": 37.63549,
      "cctvId": "L010109"
    },
    {
      "name": "법원 4거리",
      "longitude": 127.0136997,
      "latitude": 37.4939005309,
      "cctvId": "L010110"
    },
    {
      "name": "보라매역",
      "longitude": 126.92007,
      "latitude": 37.49976,
      "cctvId": "L010111"
    },
    {
      "name": "복정사거리",
      "longitude": 127.12643,
      "latitude": 37.47042,
      "cctvId": "L010112"
    },
    {
      "name": "봉원고가",
      "longitude": 126.94676,
      "latitude": 37.566577,
      "cctvId": "L010611"
    },
    {
      "name": "봉은교서단",
      "longitude": 127.06625,
      "latitude": 37.51611,
      "cctvId": "L010113"
    },
    {
      "name": "봉은사삼거리",
      "longitude": 127.05633,
      "latitude": 37.51372,
      "cctvId": "L010114"
    },
    {
      "name": "북서울꿈의숲",
      "longitude": 127.03781,
      "latitude": 37.61319,
      "cctvId": "L010115"
    },
    {
      "name": "북한남",
      "longitude": 127.00155,
      "latitude": 37.54405,
      "cctvId": "L010116"
    },
    {
      "name": "사당역",
      "longitude": 126.98136,
      "latitude": 37.47688,
      "cctvId": "L010117"
    },
    {
      "name": "삼각지",
      "longitude": 126.97442,
      "latitude": 37.53563,
      "cctvId": "L010118"
    },
    {
      "name": "삼릉공원",
      "longitude": 127.04185,
      "latitude": 37.50984,
      "cctvId": "L010119"
    },
    {
      "name": "삼성역",
      "longitude": 127.06362,
      "latitude": 37.5088,
      "cctvId": "L010120"
    },
    {
      "name": "삼양R",
      "longitude": 127.02114,
      "latitude": 37.61969,
      "cctvId": "L010121"
    },
    {
      "name": "삼양동입구",
      "longitude": 127.03005,
      "latitude": 37.61689,
      "cctvId": "L010122"
    },
    {
      "name": "삼전사거리",
      "longitude": 127.08795,
      "latitude": 37.5047,
      "cctvId": "L010123"
    },
    {
      "name": "삼정",
      "longitude": 127.03134,
      "latitude": 37.50655,
      "cctvId": "L010124"
    },
    {
      "name": "삼호가든",
      "longitude": 127.0104049,
      "latitude": 37.504930309,
      "cctvId": "L010125"
    },
    {
      "name": "상계7,9,10단지",
      "longitude": 127.05854,
      "latitude": 37.66136,
      "cctvId": "L010126"
    },
    {
      "name": "상계교~노원교",
      "longitude": 127.04994,
      "latitude": 37.66814,
      "cctvId": "L010535"
    },
    {
      "name": "상계초교",
      "longitude": 127.06675,
      "latitude": 37.65729,
      "cctvId": "L010127"
    },
    {
      "name": "상도",
      "longitude": 126.9478,
      "latitude": 37.50303,
      "cctvId": "L010128"
    },
    {
      "name": "상암교",
      "longitude": 126.8992,
      "latitude": 37.56652,
      "cctvId": "L010129"
    },
    {
      "name": "상암사거리",
      "longitude": 126.89889,
      "latitude": 37.57308,
      "cctvId": "L010130"
    },
    {
      "name": "상암초교",
      "longitude": 126.892496,
      "latitude": 37.577141,
      "cctvId": "L010131"
    },
    {
      "name": "상왕십리역",
      "longitude": 127.03025,
      "latitude": 37.56426,
      "cctvId": "L010132"
    },
    {
      "name": "상일IC",
      "longitude": 127.17915,
      "latitude": 37.54903,
      "cctvId": "L010133"
    },
    {
      "name": "생태공원",
      "longitude": 127.15271,
      "latitude": 37.5386,
      "cctvId": "L010134"
    },
    {
      "name": "서대문역",
      "longitude": 126.96665,
      "latitude": 37.56613,
      "cctvId": "L010135"
    },
    {
      "name": "서부트럭터미널",
      "longitude": 126.8431,
      "latitude": 37.50939,
      "cctvId": "L010136"
    },
    {
      "name": "서울교남단",
      "longitude": 126.91347,
      "latitude": 37.51891,
      "cctvId": "L010138"
    },
    {
      "name": "서울대입구R",
      "longitude": 126.95301,
      "latitude": 37.48141,
      "cctvId": "L010139"
    },
    {
      "name": "서울성모병원",
      "longitude": 127.0037,
      "latitude": 37.50215,
      "cctvId": "L010140"
    },
    {
      "name": "서울세관사거리",
      "longitude": 127.03501,
      "latitude": 37.51507,
      "cctvId": "L010141"
    },
    {
      "name": "서울역",
      "longitude": 126.97343,
      "latitude": 37.55486,
      "cctvId": "L010143"
    },
    {
      "name": "서울혁신파크",
      "longitude": 126.93163,
      "latitude": 37.60882,
      "cctvId": "L010144"
    },
    {
      "name": "서초IC",
      "longitude": 127.02632,
      "latitude": 37.48329,
      "cctvId": "L010145"
    },
    {
      "name": "서초역사거리",
      "longitude": 127.00808,
      "latitude": 37.49171,
      "cctvId": "L010146"
    },
    {
      "name": "석촌역",
      "longitude": 127.10762,
      "latitude": 37.50519,
      "cctvId": "L010147"
    },
    {
      "name": "선사사거리",
      "longitude": 127.12947,
      "latitude": 37.55494,
      "cctvId": "L010148"
    },
    {
      "name": "선암IC",
      "longitude": 127.02036,
      "latitude": 37.46046,
      "cctvId": "L010149"
    },
    {
      "name": "성균관대입구",
      "longitude": 127.00136,
      "latitude": 37.58547,
      "cctvId": "L010150"
    },
    {
      "name": "성동JC~군자교",
      "longitude": 127.06134,
      "latitude": 37.54913,
      "cctvId": "L010539"
    },
    {
      "name": "성동교남단",
      "longitude": 127.04384,
      "latitude": 37.55177,
      "cctvId": "L010151"
    },
    {
      "name": "성산2교",
      "longitude": 126.9122197,
      "latitude": 37.5652843315,
      "cctvId": "L010152"
    },
    {
      "name": "성산대교남단",
      "longitude": 126.88679,
      "latitude": 37.54571,
      "cctvId": "L010153"
    },
    {
      "name": "성산대교북단",
      "longitude": 126.89488,
      "latitude": 37.55784,
      "cctvId": "L010154"
    },
    {
      "name": "성산대교북단교차로",
      "longitude": 126.896405568,
      "latitude": 37.5604106403,
      "cctvId": "L010097"
    },
    {
      "name": "성수대교",
      "longitude": 127.03455,
      "latitude": 37.53263,
      "cctvId": "L010155"
    },
    {
      "name": "성수대교 남단",
      "longitude": 127.02608,
      "latitude": 37.5337,
      "cctvId": "L010518"
    },
    {
      "name": "성수대교남단교차로",
      "longitude": 127.03447,
      "latitude": 37.53055,
      "cctvId": "L010156"
    },
    {
      "name": "성신여대입구",
      "longitude": 127.01662,
      "latitude": 37.59292,
      "cctvId": "L010404"
    },
    {
      "name": "세검정로타리",
      "longitude": 126.95779,
      "latitude": 37.59978,
      "cctvId": "L010544"
    },
    {
      "name": "세곡사거리",
      "longitude": 127.10857,
      "latitude": 37.46449,
      "cctvId": "L010158"
    },
    {
      "name": "수락고가차도",
      "longitude": 127.05291,
      "latitude": 37.68406,
      "cctvId": "L010545"
    },
    {
      "name": "수락지하도",
      "longitude": 127.05556,
      "latitude": 37.6865,
      "cctvId": "L010161"
    },
    {
      "name": "수색교",
      "longitude": 126.8872229,
      "latitude": 37.587286772,
      "cctvId": "L010162"
    },
    {
      "name": "수색역3거리",
      "longitude": 126.894232,
      "latitude": 37.582781539,
      "cctvId": "L010163"
    },
    {
      "name": "수서IC",
      "longitude": 127.0981438,
      "latitude": 37.49277034,
      "cctvId": "L010164"
    },
    {
      "name": "수서역",
      "longitude": 127.10155,
      "latitude": 37.48706,
      "cctvId": "L010165"
    },
    {
      "name": "수유사거리",
      "longitude": 127.02318,
      "latitude": 37.63577,
      "cctvId": "L010166"
    },
    {
      "name": "숙대입구역",
      "longitude": 126.9720302,
      "latitude": 37.545243928,
      "cctvId": "L010167"
    },
    {
      "name": "시립동부병원",
      "longitude": 127.03056,
      "latitude": 37.57379,
      "cctvId": "L010168"
    },
    {
      "name": "시청",
      "longitude": 126.97762,
      "latitude": 37.56618,
      "cctvId": "L010169"
    },
    {
      "name": "시흥IC",
      "longitude": 126.898,
      "latitude": 37.47858,
      "cctvId": "L010170"
    },
    {
      "name": "시흥대교",
      "longitude": 126.89329,
      "latitude": 37.45234,
      "cctvId": "L010171"
    },
    {
      "name": "신내차량사업소",
      "longitude": 127.1075744,
      "latitude": 37.61073765,
      "cctvId": "L010172"
    },
    {
      "name": "신답역",
      "longitude": 127.0487303,
      "latitude": 37.5696091621,
      "cctvId": "L010173"
    },
    {
      "name": "신당로터리",
      "longitude": 127.01645,
      "latitude": 37.5652,
      "cctvId": "L010174"
    },
    {
      "name": "신도림역",
      "longitude": 126.89041,
      "latitude": 37.51053,
      "cctvId": "L010175"
    },
    {
      "name": "신림사거리",
      "longitude": 126.92951,
      "latitude": 37.48443,
      "cctvId": "L010417"
    },
    {
      "name": "신사오거리",
      "longitude": 126.91594,
      "latitude": 37.59931,
      "cctvId": "L010177"
    },
    {
      "name": "신설로터리",
      "longitude": 127.0236,
      "latitude": 37.57557,
      "cctvId": "L010178"
    },
    {
      "name": "신영삼거리",
      "longitude": 126.96161,
      "latitude": 37.60341,
      "cctvId": "L010179"
    },
    {
      "name": "신월IC",
      "longitude": 126.83491,
      "latitude": 37.52593,
      "cctvId": "L010180"
    },
    {
      "name": "신정교동단",
      "longitude": 126.88184,
      "latitude": 37.51519,
      "cctvId": "L010181"
    },
    {
      "name": "신정네거리역",
      "longitude": 126.85202,
      "latitude": 37.52162,
      "cctvId": "L010182"
    },
    {
      "name": "신촌",
      "longitude": 126.93753,
      "latitude": 37.5549,
      "cctvId": "L010183"
    },
    {
      "name": "신풍",
      "longitude": 126.90864,
      "latitude": 37.50002,
      "cctvId": "L010184"
    },
    {
      "name": "아현",
      "longitude": 126.9587078,
      "latitude": 37.55705999,
      "cctvId": "L010185"
    },
    {
      "name": "안국역",
      "longitude": 126.98274,
      "latitude": 37.57541,
      "cctvId": "L010186"
    },
    {
      "name": "안암오거리",
      "longitude": 127.02972,
      "latitude": 37.58266,
      "cctvId": "L010187"
    },
    {
      "name": "안양교",
      "longitude": 126.87219,
      "latitude": 37.49232,
      "cctvId": "L010188"
    },
    {
      "name": "암사2동토끼굴",
      "longitude": 127.12501,
      "latitude": 37.5557,
      "cctvId": "L010508"
    },
    {
      "name": "암사IC(선사입구)",
      "longitude": 127.12446,
      "latitude": 37.55539,
      "cctvId": "L010507"
    },
    {
      "name": "압구정R",
      "longitude": 127.02778,
      "latitude": 37.52724,
      "cctvId": "L010189"
    },
    {
      "name": "약수고가",
      "longitude": 127.01067,
      "latitude": 37.55512,
      "cctvId": "L010190"
    },
    {
      "name": "양재IC",
      "longitude": 127.0401726,
      "latitude": 37.46363635,
      "cctvId": "L010191"
    },
    {
      "name": "양재역",
      "longitude": 127.03394,
      "latitude": 37.48434,
      "cctvId": "L010192"
    },
    {
      "name": "양평4거리",
      "longitude": 126.89760822882,
      "latitude": 37.53550809,
      "cctvId": "L010193"
    },
    {
      "name": "양화~서강중간",
      "longitude": 126.91561,
      "latitude": 37.54259,
      "cctvId": "L010554"
    },
    {
      "name": "양화대교 북단(도)",
      "longitude": 126.90519,
      "latitude": 37.54906,
      "cctvId": "L010555"
    },
    {
      "name": "양화대교남단",
      "longitude": 126.90038,
      "latitude": 37.53866,
      "cctvId": "L010195"
    },
    {
      "name": "양화대교북단",
      "longitude": 126.90816,
      "latitude": 37.54696,
      "cctvId": "L010194"
    },
    {
      "name": "어린이과학관",
      "longitude": 126.9961961,
      "latitude": 37.58102124,
      "cctvId": "L010197"
    },
    {
      "name": "어린이대공원역",
      "longitude": 127.07383,
      "latitude": 37.54717,
      "cctvId": "L010198"
    },
    {
      "name": "여의2교남단",
      "longitude": 126.91102,
      "latitude": 37.52639,
      "cctvId": "L010556"
    },
    {
      "name": "여의공원",
      "longitude": 126.92016,
      "latitude": 37.52557,
      "cctvId": "L010199"
    },
    {
      "name": "여의교남단",
      "longitude": 126.92683,
      "latitude": 37.51489,
      "cctvId": "L010200"
    },
    {
      "name": "여의교북단",
      "longitude": 126.92807,
      "latitude": 37.5171,
      "cctvId": "L010201"
    },
    {
      "name": "여의대로 여의3 -> 신월 방향",
      "longitude": 126.9207446,
      "latitude": 37.52349751,
      "cctvId": "L010202"
    },
    {
      "name": "여의도공원",
      "longitude": 126.9221156,
      "latitude": 37.524131384,
      "cctvId": "L010203"
    },
    {
      "name": "여의도국민은행",
      "longitude": 126.91874,
      "latitude": 37.52846,
      "cctvId": "L010204"
    },
    {
      "name": "여의하류IC",
      "longitude": 126.9082,
      "latitude": 37.53288,
      "cctvId": "L010205"
    },
    {
      "name": "역삼역",
      "longitude": 127.0365622,
      "latitude": 37.50071403,
      "cctvId": "L010426"
    },
    {
      "name": "역삼역(중앙)",
      "longitude": 127.03655,
      "latitude": 37.5007,
      "cctvId": "L010206"
    },
    {
      "name": "역촌R",
      "longitude": 126.923,
      "latitude": 37.606,
      "cctvId": "L010207"
    },
    {
      "name": "연세대",
      "longitude": 126.93463,
      "latitude": 37.55975,
      "cctvId": "L010208"
    },
    {
      "name": "연신내",
      "longitude": 126.92125,
      "latitude": 37.61868,
      "cctvId": "L010209"
    },
    {
      "name": "연희IC",
      "longitude": 126.92919,
      "latitude": 37.56494,
      "cctvId": "L010210"
    },
    {
      "name": "염곡",
      "longitude": 127.04301,
      "latitude": 37.46609,
      "cctvId": "L010211"
    },
    {
      "name": "염곡IC",
      "longitude": 127.055515,
      "latitude": 37.459046,
      "cctvId": "L010212"
    },
    {
      "name": "염천교",
      "longitude": 126.971584,
      "latitude": 37.559516,
      "cctvId": "L010213"
    },
    {
      "name": "영동대교 남단(도)",
      "longitude": 127.05309,
      "latitude": 37.52785,
      "cctvId": "L010559"
    },
    {
      "name": "영동대교 북단(도)",
      "longitude": 127.05675,
      "latitude": 37.5341,
      "cctvId": "L010560"
    },
    {
      "name": "영동대교남단",
      "longitude": 127.05435,
      "latitude": 37.52605,
      "cctvId": "L010214"
    },
    {
      "name": "영동대교북단",
      "longitude": 127.05949,
      "latitude": 37.53383,
      "cctvId": "L010215"
    },
    {
      "name": "영동전화국",
      "longitude": 127.04439,
      "latitude": 37.50341,
      "cctvId": "L010216"
    },
    {
      "name": "영등포구청",
      "longitude": 126.89746,
      "latitude": 37.5279,
      "cctvId": "L010431"
    },
    {
      "name": "영등포시장",
      "longitude": 126.90475,
      "latitude": 37.51985,
      "cctvId": "L010218"
    },
    {
      "name": "영등포역",
      "longitude": 126.90712,
      "latitude": 37.51627,
      "cctvId": "L010219"
    },
    {
      "name": "영등포전화국R",
      "longitude": 126.90573,
      "latitude": 37.52575,
      "cctvId": "L010220"
    },
    {
      "name": "예일여고",
      "longitude": 126.9174863,
      "latitude": 37.6109312789,
      "cctvId": "L010221"
    },
    {
      "name": "오금교",
      "longitude": 126.874668,
      "latitude": 37.507264,
      "cctvId": "L010609"
    },
    {
      "name": "오금교서단",
      "longitude": 126.87221,
      "latitude": 37.50966,
      "cctvId": "L010222"
    },
    {
      "name": "오금사거리",
      "longitude": 127.12393,
      "latitude": 37.50448,
      "cctvId": "L010223"
    },
    {
      "name": "오류IC",
      "longitude": 126.84834,
      "latitude": 37.49831,
      "cctvId": "L010224"
    },
    {
      "name": "오륜R",
      "longitude": 127.1395,
      "latitude": 37.50694,
      "cctvId": "L010225"
    },
    {
      "name": "오목교",
      "longitude": 126.8812,
      "latitude": 37.52348,
      "cctvId": "L010226"
    },
    {
      "name": "온수",
      "longitude": 126.83714,
      "latitude": 37.4928,
      "cctvId": "L010227"
    },
    {
      "name": "올림픽 북단",
      "longitude": 127.095622,
      "latitude": 37.5413894145,
      "cctvId": "L010228"
    },
    {
      "name": "올림픽공원",
      "longitude": 127.11248,
      "latitude": 37.5171,
      "cctvId": "L010229"
    },
    {
      "name": "올림픽공원남단",
      "longitude": 127.1279951,
      "latitude": 37.511772126,
      "cctvId": "L010230"
    },
    {
      "name": "올림픽대교남단",
      "longitude": 127.11764222,
      "latitude": 37.52571352,
      "cctvId": "L010231"
    },
    {
      "name": "왕십리역오거리",
      "longitude": 127.0352,
      "latitude": 37.56116,
      "cctvId": "L010233"
    },
    {
      "name": "외발산사거리",
      "longitude": 126.81685,
      "latitude": 37.55137,
      "cctvId": "L010234"
    },
    {
      "name": "용곡삼거리",
      "longitude": 127.08599,
      "latitude": 37.56936,
      "cctvId": "L010235"
    },
    {
      "name": "용비IC",
      "longitude": 127.02938,
      "latitude": 37.54256,
      "cctvId": "L010432"
    },
    {
      "name": "용산가족공원",
      "longitude": 126.9833,
      "latitude": 37.51958,
      "cctvId": "L010237"
    },
    {
      "name": "용산구청",
      "longitude": 126.96668,
      "latitude": 37.53805,
      "cctvId": "L010238"
    },
    {
      "name": "우신초교",
      "longitude": 126.91049,
      "latitude": 37.51087,
      "cctvId": "L010239"
    },
    {
      "name": "워커힐",
      "longitude": 127.10929,
      "latitude": 37.55151,
      "cctvId": "L010240"
    },
    {
      "name": "원남R",
      "longitude": 126.99715,
      "latitude": 37.57626,
      "cctvId": "L010241"
    },
    {
      "name": "원불교",
      "longitude": 126.96522,
      "latitude": 37.50744,
      "cctvId": "L010242"
    },
    {
      "name": "원효대교남단",
      "longitude": 126.93783,
      "latitude": 37.52305,
      "cctvId": "L010243"
    },
    {
      "name": "월계1교",
      "longitude": 127.06254,
      "latitude": 37.63227,
      "cctvId": "L010244"
    },
    {
      "name": "월계1교 동측방면",
      "longitude": 127.06465,
      "latitude": 37.63194,
      "cctvId": "L010564"
    },
    {
      "name": "월계1교 서측방면",
      "longitude": 127.0609,
      "latitude": 37.63395,
      "cctvId": "L010565"
    },
    {
      "name": "월계1교~녹천교",
      "longitude": 127.05624,
      "latitude": 37.64143,
      "cctvId": "L010566"
    },
    {
      "name": "월계2교",
      "longitude": 127.04967,
      "latitude": 37.6244,
      "cctvId": "L010245"
    },
    {
      "name": "월계진아",
      "longitude": 127.06434,
      "latitude": 37.62847,
      "cctvId": "L010246"
    },
    {
      "name": "월곡역",
      "longitude": 127.041757,
      "latitude": 37.602264,
      "cctvId": "L010247"
    },
    {
      "name": "월드컵경기장",
      "longitude": 126.89327995309,
      "latitude": 37.5676406,
      "cctvId": "L010017"
    },
    {
      "name": "월드컵정문",
      "longitude": 126.8945,
      "latitude": 37.56899,
      "cctvId": "L010248"
    },
    {
      "name": "월릉IC~묵동IC",
      "longitude": 127.07197,
      "latitude": 37.61588,
      "cctvId": "L010568"
    },
    {
      "name": "월릉IC~하월곡",
      "longitude": 127.05275,
      "latitude": 37.60859,
      "cctvId": "L010569"
    },
    {
      "name": "월릉교",
      "longitude": 127.07224,
      "latitude": 37.61667,
      "cctvId": "L010249"
    },
    {
      "name": "위례1",
      "longitude": 127.1365767,
      "latitude": 37.47429191,
      "cctvId": "L010250"
    },
    {
      "name": "위례2",
      "longitude": 127.1375427,
      "latitude": 37.47855932,
      "cctvId": "L010251"
    },
    {
      "name": "은마아파트",
      "longitude": 127.060775,
      "latitude": 37.498892,
      "cctvId": "L010252"
    },
    {
      "name": "은평구청",
      "longitude": 126.92731,
      "latitude": 37.6017,
      "cctvId": "L010253"
    },
    {
      "name": "을지로1가",
      "longitude": 126.98297,
      "latitude": 37.5662,
      "cctvId": "L010254"
    },
    {
      "name": "을지로2가",
      "longitude": 126.98728,
      "latitude": 37.56637,
      "cctvId": "L010255"
    },
    {
      "name": "을지로3R",
      "longitude": 126.99008,
      "latitude": 37.56644,
      "cctvId": "L010256"
    },
    {
      "name": "을지로4가",
      "longitude": 126.99799,
      "latitude": 37.56652,
      "cctvId": "L010257"
    },
    {
      "name": "을지병원R",
      "longitude": 127.02792,
      "latitude": 37.51993,
      "cctvId": "L010258"
    },
    {
      "name": "응봉고개",
      "longitude": 127.03439,
      "latitude": 37.55323,
      "cctvId": "L010259"
    },
    {
      "name": "응암오거리",
      "longitude": 126.917162,
      "latitude": 37.590201,
      "cctvId": "L010260"
    },
    {
      "name": "이대역",
      "longitude": 126.94573,
      "latitude": 37.5566,
      "cctvId": "L010261"
    },
    {
      "name": "이수교",
      "longitude": 126.98509,
      "latitude": 37.49925,
      "cctvId": "L010262"
    },
    {
      "name": "이수역",
      "longitude": 126.9824,
      "latitude": 37.4846,
      "cctvId": "L010263"
    },
    {
      "name": "이화사거리",
      "longitude": 127.00235,
      "latitude": 37.576,
      "cctvId": "L010264"
    },
    {
      "name": "일원터널",
      "longitude": 127.07568,
      "latitude": 37.48654,
      "cctvId": "L010265"
    },
    {
      "name": "자곡 4거리",
      "longitude": 127.1058881,
      "latitude": 37.4756197,
      "cctvId": "L010267"
    },
    {
      "name": "잠실대교~잠실철교1",
      "longitude": 127.09598,
      "latitude": 37.52007,
      "cctvId": "L010574"
    },
    {
      "name": "잠실대교~잠실철교2",
      "longitude": 127.09962,
      "latitude": 37.52168,
      "cctvId": "L010575"
    },
    {
      "name": "잠실대교북단",
      "longitude": 127.08826,
      "latitude": 37.52834,
      "cctvId": "L010268"
    },
    {
      "name": "잠실새내역",
      "longitude": 127.085131,
      "latitude": 37.511852,
      "cctvId": "L010450"
    },
    {
      "name": "잠실역",
      "longitude": 127.0988,
      "latitude": 37.51424,
      "cctvId": "L010269"
    },
    {
      "name": "잠원IC",
      "longitude": 127.01567,
      "latitude": 37.50955,
      "cctvId": "L010270"
    },
    {
      "name": "잠원IC(도)",
      "longitude": 127.01575,
      "latitude": 37.50934,
      "cctvId": "L010577"
    },
    {
      "name": "장승배기",
      "longitude": 126.93955,
      "latitude": 37.5052,
      "cctvId": "L010271"
    },
    {
      "name": "장안R",
      "longitude": 127.07193,
      "latitude": 37.5725,
      "cctvId": "L010272"
    },
    {
      "name": "장안교",
      "longitude": 127.0795,
      "latitude": 37.58155,
      "cctvId": "L010273"
    },
    {
      "name": "장지IC(복정)",
      "longitude": 127.12383,
      "latitude": 37.4702,
      "cctvId": "L010578"
    },
    {
      "name": "장지교",
      "longitude": 127.126726,
      "latitude": 37.475745,
      "cctvId": "L010274"
    },
    {
      "name": "장충로터리",
      "longitude": 127.00593,
      "latitude": 37.55924,
      "cctvId": "L010275"
    },
    {
      "name": "장평교",
      "longitude": 127.07944,
      "latitude": 37.57187,
      "cctvId": "L010276"
    },
    {
      "name": "전농",
      "longitude": 127.05787,
      "latitude": 37.57775,
      "cctvId": "L010277"
    },
    {
      "name": "정동",
      "longitude": 126.9687078,
      "latitude": 37.5684043594,
      "cctvId": "L010278"
    },
    {
      "name": "정릉터널과 정릉램프사이",
      "longitude": 126.99616,
      "latitude": 37.60979,
      "cctvId": "L010581"
    },
    {
      "name": "정의여중",
      "longitude": 127.03643,
      "latitude": 37.6511,
      "cctvId": "L010279"
    },
    {
      "name": "종로1가",
      "longitude": 126.98323,
      "latitude": 37.57003,
      "cctvId": "L010459"
    },
    {
      "name": "종로2가",
      "longitude": 126.98803,
      "latitude": 37.5704,
      "cctvId": "L010281"
    },
    {
      "name": "종로3가",
      "longitude": 126.9920452,
      "latitude": 37.5702045,
      "cctvId": "L010159"
    },
    {
      "name": "종로4가",
      "longitude": 126.9985,
      "latitude": 37.57102,
      "cctvId": "L010460"
    },
    {
      "name": "종합운동장",
      "longitude": 127.07795,
      "latitude": 37.51202,
      "cctvId": "L010284"
    },
    {
      "name": "중계역",
      "longitude": 127.06429,
      "latitude": 37.64547,
      "cctvId": "L010285"
    },
    {
      "name": "중랑교",
      "longitude": 127.06956,
      "latitude": 37.59211,
      "cctvId": "L010286"
    },
    {
      "name": "중화중교",
      "longitude": 127.09495,
      "latitude": 37.58629,
      "cctvId": "L010287"
    },
    {
      "name": "증산교",
      "longitude": 126.90307,
      "latitude": 37.5773,
      "cctvId": "L010288"
    },
    {
      "name": "증산역",
      "longitude": 126.9106,
      "latitude": 37.58451,
      "cctvId": "L010289"
    },
    {
      "name": "창덕궁R",
      "longitude": 126.99,
      "latitude": 37.57729,
      "cctvId": "L010290"
    },
    {
      "name": "창동교",
      "longitude": 127.05486,
      "latitude": 37.65324,
      "cctvId": "L010291"
    },
    {
      "name": "창동교~상계교",
      "longitude": 127.05473,
      "latitude": 37.6563,
      "cctvId": "L010588"
    },
    {
      "name": "천호대교 북단",
      "longitude": 127.10794,
      "latitude": 37.54419,
      "cctvId": "L010589"
    },
    {
      "name": "천호대교~구리시계1",
      "longitude": 127.11322,
      "latitude": 37.55428,
      "cctvId": "L010590"
    },
    {
      "name": "천호대교남단",
      "longitude": 127.11892,
      "latitude": 37.54111,
      "cctvId": "L010292"
    },
    {
      "name": "천호사거리",
      "longitude": 127.12317,
      "latitude": 37.53849,
      "cctvId": "L010293"
    },
    {
      "name": "철도빌딩",
      "longitude": 126.96921,
      "latitude": 37.55323,
      "cctvId": "L010294"
    },
    {
      "name": "철산대교",
      "longitude": 126.87825,
      "latitude": 37.47533,
      "cctvId": "L010295"
    },
    {
      "name": "청계2가",
      "longitude": 126.98737,
      "latitude": 37.56783,
      "cctvId": "L010296"
    },
    {
      "name": "청계5가",
      "longitude": 127.00227,
      "latitude": 37.56993,
      "cctvId": "L010297"
    },
    {
      "name": "청계6가",
      "longitude": 127.00838,
      "latitude": 37.5709,
      "cctvId": "L010298"
    },
    {
      "name": "청계8가",
      "longitude": 127.02354,
      "latitude": 37.57205,
      "cctvId": "L010299"
    },
    {
      "name": "청계광장",
      "longitude": 126.97863,
      "latitude": 37.56889,
      "cctvId": "L010482"
    },
    {
      "name": "청담공원",
      "longitude": 127.05061,
      "latitude": 37.51867,
      "cctvId": "L010300"
    },
    {
      "name": "청담교",
      "longitude": 127.06543,
      "latitude": 37.5182,
      "cctvId": "L010301"
    },
    {
      "name": "청담교(상)",
      "longitude": 127.06343,
      "latitude": 37.52086,
      "cctvId": "L010592"
    },
    {
      "name": "청담교(하)",
      "longitude": 127.06263,
      "latitude": 37.52039,
      "cctvId": "L010591"
    },
    {
      "name": "청담대교~잠실대교1",
      "longitude": 127.07745,
      "latitude": 37.52847,
      "cctvId": "L010594"
    },
    {
      "name": "청담대교북단",
      "longitude": 127.06685,
      "latitude": 37.53133,
      "cctvId": "L010302"
    },
    {
      "name": "청담사거리",
      "longitude": 127.04751,
      "latitude": 37.52448,
      "cctvId": "L010303"
    },
    {
      "name": "청량리",
      "longitude": 127.046,
      "latitude": 37.58,
      "cctvId": "L010304"
    },
    {
      "name": "청운초교",
      "longitude": 126.970233,
      "latitude": 37.585115,
      "cctvId": "L010305"
    },
    {
      "name": "충정로",
      "longitude": 126.96293,
      "latitude": 37.55976,
      "cctvId": "L010306"
    },
    {
      "name": "코엑스",
      "longitude": 127.06079,
      "latitude": 37.5141,
      "cctvId": "L010307"
    },
    {
      "name": "탄천1교",
      "longitude": 127.08075,
      "latitude": 37.49949,
      "cctvId": "L010308"
    },
    {
      "name": "탄천2교",
      "longitude": 127.07052,
      "latitude": 37.50181,
      "cctvId": "L010309"
    },
    {
      "name": "태릉입구역",
      "longitude": 127.0755667,
      "latitude": 37.6178949410673,
      "cctvId": "L010310"
    },
    {
      "name": "태양아파트",
      "longitude": 127.04411,
      "latitude": 37.57223,
      "cctvId": "L010311"
    },
    {
      "name": "테크노마트",
      "longitude": 127.09592,
      "latitude": 37.53527,
      "cctvId": "L010312"
    },
    {
      "name": "퇴계2가",
      "longitude": 126.99109,
      "latitude": 37.56169,
      "cctvId": "L010313"
    },
    {
      "name": "퇴계4가",
      "longitude": 126.99886,
      "latitude": 37.56248,
      "cctvId": "L010477"
    },
    {
      "name": "퇴계5가",
      "longitude": 127.002131,
      "latitude": 37.562849,
      "cctvId": "L010315"
    },
    {
      "name": "포스코",
      "longitude": 127.05675,
      "latitude": 37.50722,
      "cctvId": "L010316"
    },
    {
      "name": "하계역",
      "longitude": 127.06808,
      "latitude": 37.6357,
      "cctvId": "L010479"
    },
    {
      "name": "학여울역",
      "longitude": 127.0703,
      "latitude": 37.49641,
      "cctvId": "L010318"
    },
    {
      "name": "한강대교~동작대교1",
      "longitude": 126.96091,
      "latitude": 37.51218,
      "cctvId": "L010597"
    },
    {
      "name": "한강대교남단",
      "longitude": 126.95552,
      "latitude": 37.51346,
      "cctvId": "L010481"
    },
    {
      "name": "한강대교북단",
      "longitude": 126.96152,
      "latitude": 37.52268,
      "cctvId": "L010480"
    },
    {
      "name": "한강중학교",
      "longitude": 126.99199,
      "latitude": 37.52651,
      "cctvId": "L010321"
    },
    {
      "name": "한강철교남단",
      "longitude": 126.95216,
      "latitude": 37.51498,
      "cctvId": "L010598"
    },
    {
      "name": "한남고가",
      "longitude": 127.00729,
      "latitude": 37.53337,
      "cctvId": "L010322"
    },
    {
      "name": "한남대교남단",
      "longitude": 127.01665,
      "latitude": 37.52367,
      "cctvId": "L010487"
    },
    {
      "name": "한남대교남단2",
      "longitude": 127.01654,
      "latitude": 37.52377,
      "cctvId": "L010486"
    },
    {
      "name": "한성대입구",
      "longitude": 127.00595,
      "latitude": 37.58822,
      "cctvId": "L010325"
    },
    {
      "name": "한양대",
      "longitude": 127.04326,
      "latitude": 37.55699,
      "cctvId": "L010326"
    },
    {
      "name": "합정역",
      "longitude": 126.91345,
      "latitude": 37.54895,
      "cctvId": "L010327"
    },
    {
      "name": "행주대교남단",
      "longitude": 126.80435,
      "latitude": 37.59221,
      "cctvId": "L010328"
    },
    {
      "name": "홍남교",
      "longitude": 126.92613,
      "latitude": 37.57554,
      "cctvId": "L010329"
    },
    {
      "name": "홍은",
      "longitude": 126.94111,
      "latitude": 37.59151,
      "cctvId": "L010331"
    },
    {
      "name": "화곡역",
      "longitude": 126.84018,
      "latitude": 37.5417,
      "cctvId": "L010332"
    },
    {
      "name": "화곡입구",
      "longitude": 126.82633,
      "latitude": 37.53924,
      "cctvId": "L010333"
    },
    {
      "name": "화랑대 사거리(도)",
      "longitude": 127.08708,
      "latitude": 37.62132,
      "cctvId": "L010608"
    },
    {
      "name": "화랑대사거리",
      "longitude": 127.0875,
      "latitude": 37.6215,
      "cctvId": "L010334"
    },
    {
      "name": "화양고가",
      "longitude": 127.06748,
      "latitude": 37.54868,
      "cctvId": "L010336"
    },
    {
      "name": "회기역",
      "longitude": 127.05591,
      "latitude": 37.59022,
      "cctvId": "L010337"
    },
    {
      "name": "회현R",
      "longitude": 126.98263,
      "latitude": 37.56023,
      "cctvId": "L010338"
    },
    {
      "name": "효창공원역",
      "longitude": 126.961306041,
      "latitude": 37.53900485792,
      "cctvId": "L010339"
    },
    {
      "name": "힐튼호텔",
      "longitude": 126.97664,
      "latitude": 37.55601,
      "cctvId": "L010340"
    },
    {
      "name": "(남산)1호남단",
      "longitude": 127.00149,
      "latitude": 37.54233,
      "cctvId": "E970070"
    },
    {
      "name": "(남산)경리단길",
      "longitude": 126.9867847,
      "latitude": 37.53683832,
      "cctvId": "E970071"
    },
    {
      "name": "(남산)도서관",
      "longitude": 126.9794021,
      "latitude": 37.55349901,
      "cctvId": "E970072"
    },
    {
      "name": "(남산)백범광장",
      "longitude": 126.9797597,
      "latitude": 37.55579903,
      "cctvId": "E970073"
    },
    {
      "name": "(남산)버티고개",
      "longitude": 127.0025471,
      "latitude": 37.54609956,
      "cctvId": "E970074"
    },
    {
      "name": "(남산)한옥마을",
      "longitude": 126.989393,
      "latitude": 37.56039019,
      "cctvId": "E970075"
    },
    {
      "name": "강남면허시험장",
      "longitude": 127.068,
      "latitude": 37.5071,
      "cctvId": "E970076"
    },
    {
      "name": "고덕근린공원",
      "longitude": 127.15003602,
      "latitude": 37.566397428,
      "cctvId": "E970077"
    },
    {
      "name": "고덕토평대교 남단",
      "longitude": 127.155589934935,
      "latitude": 37.5686934078637,
      "cctvId": "E970200"
    },
    {
      "name": "고척교 서단 북측(진출부)",
      "longitude": 126.870156,
      "latitude": 37.503079,
      "cctvId": "E970078"
    },
    {
      "name": "관악IC",
      "longitude": 126.945677,
      "latitude": 37.466048,
      "cctvId": "E970079"
    },
    {
      "name": "광장사거리",
      "longitude": 127.1106074659066,
      "latitude": 37.548970622595036,
      "cctvId": "E970080"
    },
    {
      "name": "광장사거리2",
      "longitude": 127.104406185491,
      "latitude": 37.5449713300586,
      "cctvId": "E970191"
    },
    {
      "name": "광진교남단",
      "longitude": 127.119538,
      "latitude": 37.542156,
      "cctvId": "E970081"
    },
    {
      "name": "국방컨벤션",
      "longitude": 126.982498306106,
      "latitude": 37.534875434421,
      "cctvId": "E970082"
    },
    {
      "name": "군자IC진출부",
      "longitude": 127.073874911092,
      "latitude": 37.5650640975307,
      "cctvId": "E970083"
    },
    {
      "name": "길음램프",
      "longitude": 127.03167638857,
      "latitude": 37.6035823999577,
      "cctvId": "E970084"
    },
    {
      "name": "길음진입",
      "longitude": 127.029280261624,
      "latitude": 37.6047216450649,
      "cctvId": "E970194"
    },
    {
      "name": "길음진출램프",
      "longitude": 127.02690333431,
      "latitude": 37.6043449212297,
      "cctvId": "E970085"
    },
    {
      "name": "남산2호터널남단",
      "longitude": 126.990074721993,
      "latitude": 37.5445868422097,
      "cctvId": "E970086"
    },
    {
      "name": "남산2호터널북단",
      "longitude": 127.002511025332,
      "latitude": 37.555191984924,
      "cctvId": "E970087"
    },
    {
      "name": "노량진 수산시장 앞",
      "longitude": 126.938939,
      "latitude": 37.516343,
      "cctvId": "E970088"
    },
    {
      "name": "당산철교 남단",
      "longitude": 126.90306521456323,
      "latitude": 37.53609384371795,
      "cctvId": "E970089"
    },
    {
      "name": "도봉지하차도 출구",
      "longitude": 127.054365236121,
      "latitude": 37.640477445141,
      "cctvId": "E970198"
    },
    {
      "name": "돌곶이역사거리",
      "longitude": 127.05699814155,
      "latitude": 37.6108663981118,
      "cctvId": "E970190"
    },
    {
      "name": "동작대교 남단",
      "longitude": 126.971433,
      "latitude": 37.507121,
      "cctvId": "E970090"
    },
    {
      "name": "동작대교북단",
      "longitude": 126.98304,
      "latitude": 37.515862,
      "cctvId": "E970091"
    },
    {
      "name": "동호대교~성수대교",
      "longitude": 127.03,
      "latitude": 37.534,
      "cctvId": "E970092"
    },
    {
      "name": "동호대교북단",
      "longitude": 127.018172,
      "latitude": 37.540012,
      "cctvId": "E970093"
    },
    {
      "name": "두무개터널입구",
      "longitude": 127.011529995208,
      "latitude": 37.5308757235889,
      "cctvId": "E970094"
    },
    {
      "name": "두무개터널출구",
      "longitude": 127.016871907267,
      "latitude": 37.5392318632468,
      "cctvId": "E970095"
    },
    {
      "name": "마곡역",
      "longitude": 126.827114496603,
      "latitude": 37.5599646068019,
      "cctvId": "E970096"
    },
    {
      "name": "마장램프",
      "longitude": 127.035992623547,
      "latitude": 37.5715373576918,
      "cctvId": "E970097"
    },
    {
      "name": "마포-원효중간",
      "longitude": 126.950161,
      "latitude": 37.531966,
      "cctvId": "E970099"
    },
    {
      "name": "마포대교북단",
      "longitude": 126.942628,
      "latitude": 37.536646,
      "cctvId": "E970098"
    },
    {
      "name": "목동IC",
      "longitude": 126.88303,
      "latitude": 37.55131,
      "cctvId": "E970100"
    },
    {
      "name": "반포대교~한남1",
      "longitude": 127.000811541487,
      "latitude": 37.511405611121,
      "cctvId": "E970101"
    },
    {
      "name": "반포대교~한남3",
      "longitude": 127.007660610182,
      "latitude": 37.5158112752665,
      "cctvId": "E970102"
    },
    {
      "name": "반포대교~한남대교2",
      "longitude": 127.00106319727756,
      "latitude": 37.51091906673777,
      "cctvId": "E970103"
    },
    {
      "name": "반포대교북단1",
      "longitude": 126.989741832337,
      "latitude": 37.5171941187583,
      "cctvId": "E970104"
    },
    {
      "name": "반포대교북단2",
      "longitude": 126.994413288115,
      "latitude": 37.520104672665,
      "cctvId": "E970105"
    },
    {
      "name": "반포주공아파트 앞",
      "longitude": 126.989949,
      "latitude": 37.505979,
      "cctvId": "E970106"
    },
    {
      "name": "방화대교 남단",
      "longitude": 126.829291,
      "latitude": 37.580236,
      "cctvId": "E970107"
    },
    {
      "name": "방화대교~가양대교",
      "longitude": 126.846674,
      "latitude": 37.572354,
      "cctvId": "E970108"
    },
    {
      "name": "복정 진출부",
      "longitude": 127.1248943,
      "latitude": 37.46761045,
      "cctvId": "E970109"
    },
    {
      "name": "사근~성동",
      "longitude": 127.050430385327,
      "latitude": 37.5538500177994,
      "cctvId": "E970110"
    },
    {
      "name": "사근램프",
      "longitude": 127.049707,
      "latitude": 37.562179,
      "cctvId": "E970111"
    },
    {
      "name": "사당IC",
      "longitude": 126.982661,
      "latitude": 37.469185,
      "cctvId": "E970112"
    },
    {
      "name": "삼육대교차로",
      "longitude": 127.1075570178,
      "latitude": 37.6379823825586,
      "cctvId": "E970113"
    },
    {
      "name": "상계교북(노원교)",
      "longitude": 127.052263245111,
      "latitude": 37.6643961071253,
      "cctvId": "E970114"
    },
    {
      "name": "상일초교",
      "longitude": 127.1733836762,
      "latitude": 37.546608849,
      "cctvId": "E970115"
    },
    {
      "name": "서강대교북단",
      "longitude": 126.928879,
      "latitude": 37.54376,
      "cctvId": "E970116"
    },
    {
      "name": "서남물재생센터",
      "longitude": 126.828658619027,
      "latitude": 37.5726618764386,
      "cctvId": "E970117"
    },
    {
      "name": "서대문구청",
      "longitude": 126.93631483366917,
      "latitude": 37.58001303400442,
      "cctvId": "E970118"
    },
    {
      "name": "서울광장",
      "longitude": 126.97887,
      "latitude": 37.56496,
      "cctvId": "E970016"
    },
    {
      "name": "서울교~여의교",
      "longitude": 126.9309927,
      "latitude": 37.51511982,
      "cctvId": "E970119"
    },
    {
      "name": "서울숲",
      "longitude": 127.0441523,
      "latitude": 37.5420044,
      "cctvId": "E970001"
    },
    {
      "name": "서초3동 4거리",
      "longitude": 127.011045,
      "latitude": 37.483717,
      "cctvId": "E970002"
    },
    {
      "name": "성동JC(내부밑)",
      "longitude": 127.050248180674,
      "latitude": 37.5521652293533,
      "cctvId": "E970120"
    },
    {
      "name": "성동교",
      "longitude": 127.04405,
      "latitude": 37.55208,
      "cctvId": "E970121"
    },
    {
      "name": "성산대교~양화대교(노들길)",
      "longitude": 126.895901,
      "latitude": 37.540882,
      "cctvId": "E970122"
    },
    {
      "name": "성산대교~양화대교(본선)",
      "longitude": 126.893901,
      "latitude": 37.542672,
      "cctvId": "E970123"
    },
    {
      "name": "성산램프",
      "longitude": 126.905379,
      "latitude": 37.563359,
      "cctvId": "E970124"
    },
    {
      "name": "성수대교 북단",
      "longitude": 127.036,
      "latitude": 37.5407,
      "cctvId": "E970125"
    },
    {
      "name": "성수대교~영동대교",
      "longitude": 127.040159,
      "latitude": 37.531283,
      "cctvId": "E970126"
    },
    {
      "name": "수서IC(탄천교북)",
      "longitude": 127.097354089534,
      "latitude": 37.4941607971582,
      "cctvId": "E970129"
    },
    {
      "name": "수서차량기지",
      "longitude": 127.109,
      "latitude": 37.4841,
      "cctvId": "E970130"
    },
    {
      "name": "수서초교",
      "longitude": 127.10423044485,
      "latitude": 37.4908437301903,
      "cctvId": "E970131"
    },
    {
      "name": "신내IC",
      "longitude": 127.102757,
      "latitude": 37.61592,
      "cctvId": "E970132"
    },
    {
      "name": "신방화역",
      "longitude": 126.816683581089,
      "latitude": 37.5674541619808,
      "cctvId": "E970133"
    },
    {
      "name": "신사역사거리",
      "longitude": 127.019588627173,
      "latitude": 37.5165802574793,
      "cctvId": "E970134"
    },
    {
      "name": "암사동선사거주지",
      "longitude": 127.12848752355,
      "latitude": 37.5614606123873,
      "cctvId": "E970135"
    },
    {
      "name": "암사역입구",
      "longitude": 127.123318003,
      "latitude": 37.55121052706,
      "cctvId": "E970136"
    },
    {
      "name": "암사취수장",
      "longitude": 127.1378635896,
      "latitude": 37.5670091794,
      "cctvId": "E970137"
    },
    {
      "name": "양재IC(2)",
      "longitude": 127.038068087688,
      "latitude": 37.4651822811941,
      "cctvId": "E970138"
    },
    {
      "name": "양천향교역",
      "longitude": 126.841119776163,
      "latitude": 37.5683139866374,
      "cctvId": "E970139"
    },
    {
      "name": "양화-서강중간",
      "longitude": 126.91561,
      "latitude": 37.54259,
      "cctvId": "E970140"
    },
    {
      "name": "여의교",
      "longitude": 126.93039908426,
      "latitude": 37.5151332845075,
      "cctvId": "E970199"
    },
    {
      "name": "역삼역R2",
      "longitude": 127.03655,
      "latitude": 37.5007,
      "cctvId": "E970024"
    },
    {
      "name": "연희램프",
      "longitude": 126.9171125,
      "latitude": 37.56798403,
      "cctvId": "E970141"
    },
    {
      "name": "영동교북단사거리",
      "longitude": 127.061179143875,
      "latitude": 37.5369692255089,
      "cctvId": "E970142"
    },
    {
      "name": "올림픽~천호대교",
      "longitude": 127.11245,
      "latitude": 37.53642,
      "cctvId": "E970143"
    },
    {
      "name": "용비교",
      "longitude": 127.032,
      "latitude": 37.5443,
      "cctvId": "E970144"
    },
    {
      "name": "용산역앞",
      "longitude": 126.96509949114,
      "latitude": 37.5265508264375,
      "cctvId": "E970192"
    },
    {
      "name": "용암초교",
      "longitude": 126.98755675327,
      "latitude": 37.5459516175055,
      "cctvId": "E970145"
    },
    {
      "name": "우면교",
      "longitude": 127.03075,
      "latitude": 37.47298,
      "cctvId": "E970146"
    },
    {
      "name": "운동장~잠실대교1",
      "longitude": 127.081965770584,
      "latitude": 37.5166570570941,
      "cctvId": "E970147"
    },
    {
      "name": "운동장~잠실대교2",
      "longitude": 127.088244502229,
      "latitude": 37.5173913557369,
      "cctvId": "E970148"
    },
    {
      "name": "운동장~잠실대교3",
      "longitude": 127.0902750868,
      "latitude": 37.5175204666,
      "cctvId": "E970149"
    },
    {
      "name": "원효대교북단",
      "longitude": 126.952059,
      "latitude": 37.530445,
      "cctvId": "E970150"
    },
    {
      "name": "월곡램프",
      "longitude": 127.04034,
      "latitude": 37.600347,
      "cctvId": "E970151"
    },
    {
      "name": "월곡역(종암~하월곡)",
      "longitude": 127.03929733051,
      "latitude": 37.6025755042785,
      "cctvId": "E970152"
    },
    {
      "name": "월곡진입",
      "longitude": 127.040715197486,
      "latitude": 37.5990183630782,
      "cctvId": "E970193"
    },
    {
      "name": "월드컵대교 북단",
      "longitude": 126.88832450201,
      "latitude": 37.5613290470468,
      "cctvId": "E970153"
    },
    {
      "name": "월드컵대교남단",
      "longitude": 126.881774090133,
      "latitude": 37.5487875458279,
      "cctvId": "E970188"
    },
    {
      "name": "월드컵대교남단2",
      "longitude": 126.878451668122,
      "latitude": 37.5529377724983,
      "cctvId": "E970189"
    },
    {
      "name": "월릉교 서측",
      "longitude": 127.07020060908256,
      "latitude": 37.62087210566,
      "cctvId": "E970154"
    },
    {
      "name": "유진상가앞",
      "longitude": 126.943443,
      "latitude": 37.592066,
      "cctvId": "E970155"
    },
    {
      "name": "이촌외인아파트 앞",
      "longitude": 126.970821,
      "latitude": 37.517946,
      "cctvId": "E970156"
    },
    {
      "name": "이화교",
      "longitude": 127.074,
      "latitude": 37.6035,
      "cctvId": "E970157"
    },
    {
      "name": "잠실대교북단(강변)",
      "longitude": 127.088018616471,
      "latitude": 37.5285189031609,
      "cctvId": "E970158"
    },
    {
      "name": "잠실철교~올림픽",
      "longitude": 127.10553,
      "latitude": 37.52657,
      "cctvId": "E970159"
    },
    {
      "name": "잠실철교북단",
      "longitude": 127.095487,
      "latitude": 37.533901,
      "cctvId": "E970160"
    },
    {
      "name": "장안교",
      "longitude": 127.07873820465913,
      "latitude": 37.57894078057424,
      "cctvId": "E970161"
    },
    {
      "name": "정릉교회 앞",
      "longitude": 127.013265,
      "latitude": 37.603514,
      "cctvId": "E970162"
    },
    {
      "name": "정릉램프",
      "longitude": 127.0061298,
      "latitude": 37.60699153,
      "cctvId": "E970163"
    },
    {
      "name": "정릉진입",
      "longitude": 127.004699953773,
      "latitude": 37.6073144033956,
      "cctvId": "E970195"
    },
    {
      "name": "종암JC",
      "longitude": 127.03940623466,
      "latitude": 37.6023975223643,
      "cctvId": "E970197"
    },
    {
      "name": "종합운동장",
      "longitude": 127.071323104879,
      "latitude": 37.5181596285569,
      "cctvId": "E970164"
    },
    {
      "name": "중랑교 동측",
      "longitude": 127.07195527954819,
      "latitude": 37.58892360857414,
      "cctvId": "E970165"
    },
    {
      "name": "중랑교 서측",
      "longitude": 127.068,
      "latitude": 37.5954,
      "cctvId": "E970166"
    },
    {
      "name": "창동 차량기지",
      "longitude": 127.0531841,
      "latitude": 37.65923689,
      "cctvId": "E970167"
    },
    {
      "name": "천호대교-구리시계1",
      "longitude": 127.116329,
      "latitude": 37.561742,
      "cctvId": "E970168"
    },
    {
      "name": "청담대교 북단",
      "longitude": 127.065766895309,
      "latitude": 37.5301912333719,
      "cctvId": "E970169"
    },
    {
      "name": "청담대교-잠실대교2",
      "longitude": 127.08273,
      "latitude": 37.52758,
      "cctvId": "E970170"
    },
    {
      "name": "탄천1교_동부",
      "longitude": 127.080482777003,
      "latitude": 37.4997462198278,
      "cctvId": "E970171"
    },
    {
      "name": "퇴계1가",
      "longitude": 126.983075648572,
      "latitude": 37.5584997117007,
      "cctvId": "E970172"
    },
    {
      "name": "평창동일성빌라 앞",
      "longitude": 126.973532,
      "latitude": 37.609066,
      "cctvId": "E970173"
    },
    {
      "name": "하얏트",
      "longitude": 126.998179676016,
      "latitude": 37.5409562169765,
      "cctvId": "E970174"
    },
    {
      "name": "한남2고가",
      "longitude": 127.004250094149,
      "latitude": 37.5381855792987,
      "cctvId": "E970175"
    },
    {
      "name": "한남2동지하차도",
      "longitude": 126.998176995075,
      "latitude": 37.5348834747347,
      "cctvId": "E970176"
    },
    {
      "name": "한남IC",
      "longitude": 127.0172046,
      "latitude": 37.51990396,
      "cctvId": "E970177"
    },
    {
      "name": "한남대교~동호대교",
      "longitude": 127.02084719354174,
      "latitude": 37.52734139366728,
      "cctvId": "E970178"
    },
    {
      "name": "한남대교북단",
      "longitude": 127.005805031148,
      "latitude": 37.5273757522647,
      "cctvId": "E970179"
    },
    {
      "name": "한남대교북단",
      "longitude": 127.007157,
      "latitude": 37.52825,
      "cctvId": "E970180"
    },
    {
      "name": "한남대교북단2",
      "longitude": 127.011230163962,
      "latitude": 37.5307406022693,
      "cctvId": "E970181"
    },
    {
      "name": "한천교",
      "longitude": 127.07,
      "latitude": 37.625,
      "cctvId": "E970182"
    },
    {
      "name": "홍남교(내부)",
      "longitude": 126.926402123653,
      "latitude": 37.5754099478231,
      "cctvId": "E970183"
    },
    {
      "name": "홍은램프",
      "longitude": 126.944665,
      "latitude": 37.592383,
      "cctvId": "E970184"
    },
    {
      "name": "홍은진입",
      "longitude": 126.948824319781,
      "latitude": 37.5948866250359,
      "cctvId": "E970196"
    },
    {
      "name": "홍제램프",
      "longitude": 126.935643,
      "latitude": 37.58759,
      "cctvId": "E970185"
    },
    {
      "name": "홍지문-정릉터널 중간",
      "longitude": 126.97362,
      "latitude": 37.60675,
      "cctvId": "E970186"
    },
    {
      "name": "홍지문터널입구",
      "longitude": 126.953139034004,
      "latitude": 37.59629058486,
      "cctvId": "E970187"
    }
  ]
}
